[
    {
        "name": "Australia",
        "capital": {
            "lat": -35.28195267748961,
            "lng": 149.1287058156504
        }
    },
    {
        "name": "Brunei Darussalam",
        "capital": {
            "lat": 4.905456208002751,
            "lng": 114.94392622836888
        }
    },
    {
        "name": "Canada",
        "capital": {
            "lat": 45.241270622123665,
            "lng": -75.764588730589
        }
    },
    {
        "name": "Chile",
        "capital": {
            "lat": -33.43375243492921,
            "lng": -70.66829156600485
        }
    },
    {
        "name": "China",
        "capital": {
            "lat": 39.9238037424187,
            "lng": 116.39468278157952
        }
    },
    {
        "name": "Hong Kong, China",
        "capital": {
            "lat": 22.308202535622037,
            "lng": 114.1743828257417
        }
    },
    {
        "name": "Indonesia",
        "capital": {
            "lat": -6.192866836174397,
            "lng": 106.83637465966534
        }
    },
    {
        "name": "Japan",
        "capital": {
            "lat": 35.68524485090089,
            "lng": 139.75309909462686
        }
    },
    {
        "name": "Korea",
        "capital": {
            "lat": 37.550164930168116,
            "lng": 126.98094506686088
        }
    },
    {
        "name": "Malaysia",
        "capital": {
            "lat": 3.12856208628641,
            "lng": 101.68836034667191
        }
    },
    {
        "name": "Mexico",
        "capital": {
            "lat": 19.449609687014053,
            "lng": -99.13194893710295
        }
    },
    {
        "name": "New Zealand",
        "capital": {
            "lat": -41.283841397454154,
            "lng": 174.75493703092206
        }
    },
    {
        "name": "Papua New Guinea",
        "capital": {
            "lat": -9.442262248501443,
            "lng": 147.1787574860837
        }
    },
    {
        "name": "Peru",
        "capital": {
            "lat": -12.040706090361398,
            "lng": -77.04409370552528
        }
    },
    {
        "name": "The Philippines",
        "capital": {
            "lat": 14.599319727731508,
            "lng": 120.98453738925159
        }
    },
    {
        "name": "Russia",
        "capital": {
            "lat": 55.7789643296569,
            "lng": 37.577705666913694
        }
    },
    {
        "name": "Singapore",
        "capital": {
            "lat": 1.3517514071809917,
            "lng": 103.83325386763079
        }
    },
    {
        "name": "Chinese Taipei",
        "capital": {
            "lat": 25.039673025259226,
            "lng": 121.56802212241664
        }
    },
    {
        "name": "Thailand",
        "capital": {
            "lat": 13.753241047844435,
            "lng": 100.48684575594905
        }
    },
    {
        "name": "The United States",
        "capital": {
            "lat": 38.899612003911514,
            "lng": -77.03483393088192
        }
    },
    {
        "name": "Viet Nam",
        "capital": {
            "lat": 21.037479620087183,
            "lng": 105.83481779039062
        }
    }
]